,City,Country,datetime,lat,long,Max Temp (F),Cloudiness,Humidity,Wind Speed
0,Ushuaia,AR,1644551152,-54.8,-68.3,44.3,40,81,12.86
1,Doha,QA,1644551347,25.2867,51.5333,64.3,0,85,1.54
2,Jamestown,US,1644551347,42.097,-79.2353,32.1,100,59,3.09
3,Huittinen,FI,1644551348,61.1833,22.7,28.0,11,92,3.16
4,Gawler,AU,1644551138,-34.6,138.7333,83.1,28,34,3.44
5,Sur,OM,1644551349,22.5667,59.5289,69.4,0,50,1.88
6,Hong Kong,HK,1644551177,22.2855,114.1577,74.0,39,76,3.58
7,Tauragė,LT,1644551349,55.2522,22.2897,34.0,78,94,3.94
8,Talnakh,RU,1644551230,69.4865,88.3972,-0.8,18,93,5.4
9,Hobart,AU,1644551252,-42.8794,147.3294,73.0,40,43,4.63
10,Bredasdorp,ZA,1644551351,-34.5322,20.0403,54.7,0,88,2.57
11,Ribeira Grande,PT,1644551351,38.5167,-28.7,60.1,100,69,3.79
12,Flinders,AU,1644551352,-34.5833,150.8552,73.8,100,78,6.16
13,Lavrentiya,RU,1644551352,65.5833,-171.0,-27.8,52,98,2.34
14,Huangyan,CN,1644551353,28.6478,121.2594,47.0,100,93,1.15
15,Kahului,US,1644551272,20.8947,-156.47,78.8,40,73,5.66
16,Port Alfred,ZA,1644551354,-33.5906,26.891,66.6,4,87,2.35
17,Mataura,NZ,1644551354,-46.1927,168.8643,63.5,26,55,3.51
18,Rikitea,PF,1644551318,-23.1203,-134.9692,79.5,40,72,6.54
19,Itacaré,BR,1644551355,-14.2775,-38.9967,75.5,6,87,1.54
20,Warsaw,PL,1644551248,52.2298,21.0118,40.8,20,91,3.6
21,Wołomin,PL,1644551162,52.3401,21.2421,41.1,100,92,4.23
22,Arraial do Cabo,BR,1644551069,-22.9661,-42.0278,71.9,100,92,1.35
23,Hermanus,ZA,1644551357,-34.4187,19.2345,60.9,0,79,1.33
24,Agadez,NE,1644551357,19.75,10.25,53.2,0,31,4.19
25,Bluff,NZ,1644551358,-46.6,168.3333,63.8,26,74,4.93
26,Provideniya,RU,1644551358,64.3833,-173.3,-9.3,0,59,5.0
27,Yuanli,TW,1644551359,24.4397,120.6535,82.4,75,88,6.17
28,Vila Franca do Campo,PT,1644551359,37.7167,-25.4333,59.2,97,73,2.37
29,Port Elizabeth,ZA,1644551360,-33.918,25.5701,61.1,0,82,2.06
30,Punta Arenas,CL,1644551360,-53.15,-70.9167,44.7,75,57,4.12
31,Barrow,US,1644551361,71.2906,-156.7887,-16.6,100,69,3.6
32,Lompoc,US,1644551361,34.6391,-120.4579,67.4,0,46,0.0
33,Rochegda,RU,1644551362,62.8,43.25,23.7,100,96,2.8
34,Dandong,CN,1644551362,40.1292,124.3947,39.3,16,60,2.44
35,Bonavista,CA,1644551363,48.6499,-53.1147,33.1,57,78,6.83
36,Port Hedland,AU,1644551266,-20.3167,118.5667,95.1,40,52,7.72
37,Faanui,PF,1644551363,-16.4833,-151.75,81.7,30,73,6.71
38,Hilo,US,1644551364,19.7297,-155.09,74.9,0,77,2.57
39,Dingle,PH,1644551364,10.9995,122.6711,82.3,98,72,6.56
40,Koslan,RU,1644551365,63.4564,48.8989,19.9,100,94,4.16
41,Alihe,CN,1644551365,50.5667,123.7167,9.4,100,68,1.56
42,Galesong,ID,1644551366,-5.3166,119.3661,84.2,100,83,2.63
43,Yumen,CN,1644551366,40.2833,97.2,28.4,69,40,9.8
44,New Norfolk,AU,1644551366,-42.7826,147.0587,73.7,8,24,2.07
45,Yatou,CN,1644551367,37.15,122.3833,48.0,30,43,2.16
46,Astoria,US,1644551227,46.1879,-123.8313,48.7,5,93,0.45
47,Torbay,CA,1644551367,47.6666,-52.7314,32.8,40,89,5.14
48,Butaritari,KI,1644551368,3.0707,172.7902,82.4,37,78,8.24
49,Pemangkat,ID,1644551369,1.1667,108.9667,79.2,100,82,3.14
50,Kizilskoye,RU,1644551371,52.7255,58.8937,17.1,100,96,3.45
51,Dunedin,NZ,1644551372,-45.8742,170.5036,63.8,52,81,3.13
52,Atuona,PF,1644551372,-9.8,-139.0333,78.3,9,74,7.64
53,Tignère,CM,1644551373,7.3667,12.65,60.7,5,16,0.88
54,Chapais,CA,1644551374,49.7834,-74.8492,-0.6,89,100,1.33
55,Oddur,SO,1644551374,4.1213,43.8894,65.8,19,76,7.82
56,Marsaxlokk,MT,1644551375,35.8419,14.5431,47.0,0,100,2.06
57,Cape Town,ZA,1644551280,-33.9258,18.4232,63.3,0,76,2.57
58,Saint-Philippe,RE,1644551376,-21.3585,55.7679,78.4,36,75,2.52
59,Chokurdakh,RU,1644551376,70.6333,147.9167,-26.4,73,91,4.34
60,Bagan,RU,1644551377,54.1001,77.6646,-15.8,52,99,2.61
61,Santa Fe,AR,1644551377,-31.6333,-60.7,78.0,7,50,2.68
62,Alofi,NU,1644551378,-19.0595,-169.9187,85.9,40,66,5.66
63,Kavieng,PG,1644551379,-2.5744,150.7967,83.2,95,72,2.57
64,Clarence Town,AU,1644551379,-32.5833,151.7833,79.0,60,83,3.83
65,Asău,RO,1644551380,46.4333,26.4,35.8,100,90,3.19
66,Saskylakh,RU,1644551380,71.9167,114.0833,2.8,94,94,5.43
67,Channel-Port aux Basques,CA,1644551139,47.5702,-59.1367,32.1,64,91,5.15
68,Amritsar,IN,1644551381,31.6331,74.8656,51.6,0,100,2.06
69,Tuktoyaktuk,CA,1644551382,69.4541,-133.0374,-16.6,100,76,11.32
70,Bethel,US,1644551383,41.3712,-73.414,43.2,0,63,1.54
71,Rio Grande,BR,1644551086,-32.035,-52.0986,73.0,7,81,8.37
72,Champerico,GT,1644551383,14.3,-91.9167,80.0,0,73,2.45
73,Busselton,AU,1644551384,-33.65,115.3333,85.5,0,42,5.38
74,Qaanaaq,GL,1644551384,77.484,-69.3632,-23.2,75,63,2.23
75,East London,ZA,1644551385,-33.0153,27.9116,68.9,20,83,4.12
76,Dhaka,BD,1644551189,23.7104,90.4074,66.2,40,88,0.0
77,George Town,MY,1644551386,5.4112,100.3354,84.1,40,87,1.54
78,Pisco,PE,1644551087,-13.7,-76.2167,71.7,0,73,4.12
79,Puerto Ayora,EC,1644551387,-0.7393,-90.3518,74.6,85,94,2.0
80,Sharkan,RU,1644551388,57.2989,53.8712,19.2,100,95,3.98
81,Souillac,MU,1644551388,-20.5167,57.5167,82.4,40,94,1.03
82,Wad Rāwah,SD,1644551389,15.1603,33.1397,64.5,0,22,6.89
83,Berlevåg,NO,1644551389,70.8578,29.0864,25.1,95,89,5.37
84,Naze,JP,1644551390,28.3667,129.4833,61.7,47,55,3.88
85,Vallenar,CL,1644551390,-28.5708,-70.7581,63.3,1,79,0.97
86,Kapaa,US,1644551391,22.0752,-159.319,78.8,75,69,2.06
87,Ponta do Sol,PT,1644551391,32.6667,-17.1,67.7,100,57,2.66
88,Isangel,VU,1644551392,-19.55,169.2667,86.1,75,79,2.06
89,Mitsamiouli,KM,1644551392,-11.3847,43.2844,79.1,75,94,3.6
90,Ust-Tsilma,RU,1644551393,65.441,52.1498,22.7,100,92,4.59
91,Upernavik,GL,1644551393,72.7868,-56.1549,-18.7,64,99,2.5
92,Cidreira,BR,1644551394,-30.1811,-50.2056,74.0,15,82,8.38
93,Vaini,TO,1644551394,-21.2,-175.2,86.2,40,79,4.63
94,Chui,UY,1644551395,-33.6971,-53.4616,69.4,0,84,4.71
95,Saint Paul Harbor,US,1644551395,57.79,-152.4072,35.1,100,80,12.86
96,Necochea,AR,1644551396,-38.5473,-58.7368,65.0,100,91,5.48
97,Los Llanos de Aridane,ES,1644551396,28.6585,-17.9182,68.1,0,25,3.6
98,Saint George,US,1644551397,37.1041,-113.5841,57.8,0,38,2.57
99,Katsuura,JP,1644551397,35.1333,140.3,44.7,94,59,7.72
100,San Patricio,US,1644551397,28.017,-97.5169,58.8,86,72,3.02
101,Vardø,NO,1644551398,70.3705,31.1107,21.4,85,81,5.22
102,Arrecife,ES,1644551398,28.963,-13.5477,64.4,0,39,1.03
103,Bac Lieu,VN,1644551399,9.285,105.7244,85.8,100,60,9.58
104,Shingū,JP,1644551399,33.7333,135.9833,54.6,0,39,1.57
105,Camacha,PT,1644551229,33.0833,-16.3333,61.6,20,94,3.09
106,Camopi,GF,1644551400,3.1655,-52.3158,70.2,83,99,0.63
107,Benguela,AO,1644551401,-12.5763,13.4055,73.8,100,72,0.9
108,Opuwo,NA,1644551401,-18.0607,13.84,66.6,100,88,1.99
109,Bilibino,RU,1644551402,68.0546,166.4372,-35.3,55,98,0.88
110,Petropavlovsk-Kamchatskiy,RU,1644551402,53.0452,158.6483,23.6,0,54,1.0
111,Esperance,AU,1644551403,-33.8667,121.9,107.4,20,28,8.54
112,Avera,US,1644551403,33.194,-82.5271,55.3,9,56,2.17
113,Arrondissement du Havre,FR,1644551404,49.5833,0.3333,42.6,75,70,5.14
114,Road Town,VG,1644551404,18.4167,-64.6167,75.3,6,79,8.34
115,Gigmoto,PH,1644551405,13.7796,124.39,81.5,99,70,5.93
116,Sibu,MY,1644551405,2.3,111.8167,82.7,40,78,2.24
117,North Bend,US,1644551406,43.4065,-124.2243,49.9,100,98,6.69
118,Lovozero,RU,1644551406,68.005,35.0117,12.3,100,93,1.78
119,Caravelas,BR,1644551191,-17.7125,-39.2481,74.9,7,91,2.37
120,Honningsvåg,NO,1644551200,70.9821,25.9704,34.3,99,83,14.24
121,Sisimiut,GL,1644551407,66.9395,-53.6735,12.1,100,76,5.35
122,Nome,US,1644551407,64.5011,-165.4064,-12.9,0,70,2.57
123,Whitehorse,CA,1644551139,60.7161,-135.0538,-0.7,21,96,1.63
124,Yuzhnyy-Kospashskiy,RU,1644551408,58.9695,57.7548,11.0,100,78,6.12
125,Zelenogorskiy,RU,1644551409,55.0333,87.0,-1.7,20,84,0.44
126,Cap Malheureux,MU,1644551409,-19.9842,57.6142,82.5,4,69,1.34
127,Saldanha,ZA,1644551410,-33.0117,17.9442,57.3,0,88,4.49
128,Nanortalik,GL,1644551410,60.1432,-45.2371,27.6,100,64,1.84
129,Iqaluit,CA,1644551411,63.7506,-68.5145,2.9,100,72,3.09
130,Dauriya,RU,1644551411,49.9333,116.8667,-1.5,97,90,2.05
131,Kaitangata,NZ,1644551194,-46.2817,169.8464,62.0,17,74,3.37
132,Aklavik,CA,1644551412,68.2191,-135.0107,-15.8,53,99,2.4
133,Porto-Novo,BJ,1644551227,6.4965,2.6036,75.9,0,92,1.9
134,Codrington,AU,1644551412,-38.2667,141.9667,66.6,97,49,7.55
135,Hasaki,JP,1644551144,35.7333,140.8333,45.3,97,58,9.93
136,Nikolskoye,RU,1644551413,59.7035,30.7861,32.4,97,92,3.65
137,Bambous Virieux,MU,1644551413,-20.3428,57.7575,82.2,40,94,1.03
138,Ayan,RU,1644551414,56.45,138.1667,16.6,100,90,3.82
139,Grindavik,IS,1644551414,63.8424,-22.4338,34.3,75,60,4.12
140,Hithadhoo,MV,1644551414,-0.6,73.0833,81.0,100,68,1.51
141,Kruisfontein,ZA,1644551415,-34.0033,24.7314,59.8,0,91,1.26
142,Tiksi,RU,1644551415,71.6872,128.8694,-11.5,100,92,5.43
143,Beringovskiy,RU,1644551416,63.05,179.3167,-24.3,27,96,3.25
144,Yamada,JP,1644551416,39.4667,141.95,37.1,100,70,5.21
145,Maniitsoq,GL,1644551417,65.4167,-52.9,23.2,100,95,6.98
146,Dikson,RU,1644551417,73.5069,80.5464,5.7,100,93,11.84
147,Olafsvik,IS,1644551304,64.8945,-23.7142,34.5,98,63,4.55
148,Port-Gentil,GA,1644551418,-0.7193,8.7815,80.8,100,80,3.14
149,Berbera,SO,1644551418,10.4396,45.0143,72.3,1,64,2.16
150,Lagoa,PT,1644551419,39.05,-27.9833,58.7,98,69,3.46
151,Coronado,US,1644551139,32.6859,-117.1831,71.4,0,39,4.63
152,Sokoto,NG,1644551419,13.0609,5.239,64.1,0,11,5.21
153,Tual,ID,1644551420,-5.6667,132.75,82.6,76,69,1.73
154,Kano,NG,1644551420,12.0001,8.5167,57.1,62,54,2.06
155,Dongsheng,CN,1644551268,39.8161,109.9776,29.2,100,40,3.95
156,Iquique,CL,1644551421,-20.2208,-70.1431,68.0,6,67,1.11
157,Albany,US,1644551138,42.6001,-73.9662,36.2,38,89,1.06
158,Teguise,ES,1644551422,29.0605,-13.564,61.0,0,39,1.03
159,Zakan-Yurt,RU,1644551422,43.2597,45.4206,32.1,55,65,1.81
160,Kutum,SD,1644551423,14.2,24.6667,47.8,0,32,3.4
161,Castro,BR,1644551339,-24.7911,-50.0119,58.1,6,98,2.26
162,Mezen',RU,1644551423,65.8522,44.24,23.1,100,93,4.85
163,Geraldton,AU,1644551424,-28.7667,114.6,91.8,5,38,7.72
164,Umluj,SA,1644551424,25.0213,37.2685,59.6,0,57,4.93
165,Reyes,BO,1644551424,-14.3167,-67.3833,74.9,97,82,0.77
166,Bengkulu,ID,1644551425,-3.8004,102.2655,82.5,100,61,1.91
167,Taoudenni,ML,1644551425,22.6783,-3.9836,56.7,3,36,5.03
168,Narsaq,GL,1644551426,60.9167,-46.05,13.2,94,61,3.42
169,Yellowknife,CA,1644551175,62.456,-114.3525,-16.6,100,76,1.54
170,Cuamba,MZ,1644551426,-14.8031,36.5372,68.1,91,97,0.42
171,Scarborough,GB,1644551139,54.2797,-0.4044,35.7,8,78,1.34
172,Tashla,RU,1644551427,51.7716,52.7427,16.8,100,98,1.77
173,Ahipara,NZ,1644551427,-35.1667,173.1667,77.7,56,86,4.6
174,Guiren,CN,1644551428,33.6697,118.1889,47.0,100,48,4.21
175,Longyearbyen,SJ,1644551202,78.2186,15.6401,19.2,75,86,2.06
176,Avarua,CK,1644551143,-21.2078,-159.775,82.5,11,69,3.09
177,Omboué,GA,1644551428,-1.5746,9.2618,77.0,96,88,2.25
178,Taltal,CL,1644551429,-25.4,-70.4833,65.8,1,81,1.07
179,Boda,CF,1644551429,4.3189,17.4695,67.6,9,21,0.94
180,Camacupa,AO,1644551430,-12.0167,17.4833,57.4,100,93,0.55
181,Umm Kaddadah,SD,1644551198,13.6017,26.6876,54.3,9,27,8.27
182,Husavik,IS,1644551430,66.0449,-17.3389,30.1,49,76,5.65
183,Benavente,ES,1644551431,42.0025,-5.6783,49.9,84,83,3.3
184,Argelia,CO,1644551431,2.2556,-77.2488,65.6,100,99,0.36
185,Ancud,CL,1644551432,-41.8697,-73.8203,50.4,13,75,3.68
186,Lebu,CL,1644551432,-37.6167,-73.65,56.0,0,76,8.64
187,George,ZA,1644551433,-33.963,22.4617,64.0,40,82,1.03
188,Jizan,SA,1644551433,17.3333,42.6667,76.1,3,79,1.12
189,Mackay,AU,1644551433,-21.15,149.2,91.7,0,54,7.72
190,Aripuanã,BR,1644551434,-9.1667,-60.6333,72.9,94,98,0.59
191,Rondonópolis,BR,1644551230,-16.4708,-54.6356,69.7,99,98,1.55
192,Sharanga,RU,1644551435,57.1775,46.5396,21.9,100,96,2.78
193,Cody,US,1644551435,44.5263,-109.0565,48.4,0,29,3.6
194,Moose Factory,CA,1644551436,51.2585,-80.6094,-13.0,100,77,1.03
195,Cherskiy,RU,1644551436,68.75,161.3,-30.2,100,97,2.6
196,Yarmouth,US,1644551436,41.7057,-70.2286,44.1,75,81,3.09
197,Pelotas,BR,1644551437,-31.7719,-52.3425,72.9,12,87,1.34
198,Khatanga,RU,1644551437,71.9667,102.5,-4.0,15,89,5.59
199,Severo-Kuril'sk,RU,1644551438,50.6789,156.125,28.7,90,74,1.79
200,Booué,GA,1644551438,-0.0921,11.9385,72.8,80,96,0.81
201,Mashpee,US,1644551438,41.6484,-70.4811,42.7,0,68,5.66
202,Finschhafen,PG,1644551439,-6.6024,147.8681,84.2,93,74,3.65
203,Maxixe,MZ,1644551439,-23.8597,35.3472,69.6,40,94,1.54
204,Alekseyevsk,RU,1644551440,57.8406,108.3492,-10.6,94,92,1.3
205,Thaba-Tseka,LS,1644551440,-29.522,28.6084,54.8,2,62,0.97
206,Astara,AZ,1644551440,38.5,48.6667,37.4,100,97,1.56
207,Carnarvon,AU,1644551441,-24.8667,113.6333,96.9,75,38,6.69
208,São Filipe,CV,1644551441,14.8961,-24.4956,76.8,99,60,2.11
209,Prado,BR,1644551442,-17.3411,-39.2208,75.9,15,90,2.88
210,Thompson,CA,1644551443,55.7435,-97.8558,-21.8,0,76,6.69
211,Shahdol,IN,1644551443,23.2833,81.35,62.6,2,42,1.91
212,Bubaque,GW,1644551196,11.2833,-15.8333,78.0,1,75,4.12
213,Diu,IN,1644551444,20.7141,70.9822,73.1,49,41,8.26
214,Lakes Entrance,AU,1644551444,-37.8811,147.981,71.2,6,59,5.18
215,Lorengau,PG,1644551445,-2.0226,147.2712,83.3,100,77,3.01
216,Sidi Ali,DZ,1644551445,36.0998,0.4206,47.1,32,82,0.67
217,Orange,US,1644551416,33.7,-117.7675,76.1,0,31,1.35
218,Xinqing,CN,1644551446,48.2333,129.5,15.1,100,79,2.56
219,Kavaratti,IN,1644551447,10.5669,72.642,80.2,75,73,5.13
220,Sitka,US,1644551447,57.0531,-135.33,33.7,0,75,3.09
221,Clyde River,CA,1644551447,70.4692,-68.5914,-16.4,20,69,7.2
222,Srednekolymsk,RU,1644551448,67.45,153.6833,-26.0,22,94,0.75
223,Bourail,NC,1644551448,-21.5667,165.4833,84.9,100,75,6.03
224,Kiryat Gat,IL,1644551449,31.61,34.7642,49.8,29,100,1.05
225,Pajapan,MX,1644551449,18.25,-94.7,66.0,99,89,2.7
226,Tasiilaq,GL,1644551450,65.6145,-37.6368,8.0,100,62,2.26
227,Vidisha,IN,1644551450,23.5333,77.8167,56.5,0,43,2.33
228,Naryan-Mar,RU,1644551450,67.6713,53.087,22.0,98,87,8.4
229,Lüderitz,NA,1644551451,-26.6481,15.1594,68.7,41,68,5.26
230,Labytnangi,RU,1644551451,66.6572,66.4183,2.1,97,98,3.24
231,Juba,SS,1644551439,4.8517,31.5825,76.3,100,33,1.1
232,Jacareacanga,BR,1644551452,-6.2222,-57.7528,72.4,95,98,0.32
233,Gari,RU,1644551452,59.4307,62.3497,4.8,100,90,5.93
234,Muriwai Beach,NZ,1644551453,-36.8167,174.45,79.4,97,89,2.21
235,Prügy,HU,1644551453,48.0833,21.25,33.5,18,87,1.32
236,Mount Gambier,AU,1644551454,-37.8333,140.7667,73.3,75,40,9.26
237,Vao,NC,1644551454,-22.6667,167.4833,81.5,100,85,15.07
238,Norman Wells,CA,1644551455,65.282,-126.8329,-13.0,20,77,2.57
239,Devils Lake,US,1644551455,48.1128,-98.8651,35.6,75,86,10.8
240,Volksrust,ZA,1644551455,-27.3654,29.8818,58.4,56,67,1.43
241,Champasak,LA,1644551456,14.75,106.0,85.1,44,36,0.74
242,San Quintín,MX,1644551456,30.4833,-115.95,65.0,0,29,2.23
243,Mugumu,TZ,1644551457,-1.85,34.7,61.2,100,89,1.04
244,Puerto Carreño,CO,1644551457,6.189,-67.4859,80.4,68,49,2.62
245,Margate,GB,1644551458,51.3813,1.3862,39.7,5,80,3.58
246,Tarakan,ID,1644551458,3.3,117.6333,80.1,40,94,1.03
247,Jurbarkas,LT,1644551459,55.0778,22.7664,35.1,84,90,4.39
248,Pangnirtung,CA,1644551385,66.1451,-65.7125,-1.0,100,96,3.69
249,Guerrero Negro,MX,1644551450,27.9769,-114.0611,64.0,0,50,0.97
250,Vostok,RU,1644551460,46.4856,135.8833,22.1,100,82,1.13
251,Anadyr,RU,1644551367,64.75,177.4833,-19.7,0,76,3.0
252,Maragogi,BR,1644551461,-9.0122,-35.2225,78.0,100,76,2.65
253,College,US,1644551461,64.8569,-147.8028,-13.4,75,71,0.0
254,Najrān,SA,1644551462,17.4924,44.1277,52.4,3,31,0.27
255,Pitimbu,BR,1644551462,-7.4706,-34.8086,79.4,57,77,3.54
256,Telde,ES,1644551463,27.9924,-15.4192,66.0,0,48,1.03
257,Viedma,AR,1644551463,-40.8135,-62.9967,60.1,87,52,4.18
258,Wajima,JP,1644551464,37.4,136.9,41.7,40,56,1.03
259,Aykhal,RU,1644551464,66.0,111.5,-1.6,98,95,2.63
260,Paamiut,GL,1644551373,61.994,-49.6678,15.3,100,68,4.5
261,San Cristobal,VE,1644551465,7.7669,-72.225,70.0,77,91,0.8
262,Natal,BR,1644551466,-5.795,-35.2094,80.8,20,83,2.57
263,Port Hawkesbury,CA,1644551466,45.6169,-61.3485,37.2,75,89,2.57
264,Pendleton,US,1644551466,45.6721,-118.7886,51.4,0,64,1.34
265,Aswān,EG,1644551467,24.0934,32.907,47.5,0,49,2.06
266,Verkhnevilyuysk,RU,1644551467,63.4453,120.3167,-14.0,47,91,1.42
267,Mayna,RU,1644551468,54.1135,47.6231,19.6,97,96,3.39
268,Santa Cruz del Sur,CU,1644551282,20.7147,-77.9956,74.4,0,83,3.21
269,Ordynskoye,RU,1644551468,54.3656,81.8994,-8.3,22,95,2.17
270,New Castle,US,1644551224,41.0037,-80.347,33.1,0,74,3.09
271,Meulaboh,ID,1644551469,4.1363,96.1285,84.2,51,66,1.62
272,Ostrovnoy,RU,1644551231,68.0531,39.5131,24.4,100,88,7.31
273,Halifax,CA,1644551139,44.6453,-63.5724,36.3,20,95,7.72
274,Leningradskiy,RU,1644551470,69.3833,178.4167,-27.6,52,96,1.66
275,Tessalit,ML,1644551470,20.1986,1.0114,58.1,46,25,4.89
276,Sept-Îles,CA,1644551471,50.2001,-66.3821,30.7,100,96,2.06
277,Barcelos,PT,1644551471,41.5388,-8.6151,55.9,61,76,1.57
278,Beitbridge,ZW,1644551472,-22.2167,30.0,72.5,3,63,5.22
279,Papara,BR,1644551473,-3.9839,-38.7273,81.0,81,87,0.38
280,Labuhan,ID,1644551473,-6.8844,112.2051,82.1,100,78,3.28
281,Saint-Michel-des-Saints,CA,1644551473,46.6834,-73.9159,21.0,77,93,2.87
282,Hambantota,LK,1644551474,6.1241,81.1185,75.5,75,100,0.0
283,Pokhara,NP,1644551474,28.2333,83.9833,57.6,84,49,1.52
284,Saint Anthony,US,1644551475,45.0205,-93.218,40.9,100,83,7.2
285,Broken Hill,AU,1644551475,-31.95,141.4333,80.3,3,26,9.26
286,San Jerónimo,PE,1644551476,-11.9472,-75.2829,49.6,100,85,1.14
287,Schruns,AT,1644551476,47.0709,9.9475,33.7,68,100,2.82
288,Mehamn,NO,1644551477,71.0357,27.8492,31.3,99,90,3.54
289,Ossora,RU,1644551477,59.2353,163.0719,-4.0,21,79,1.64
290,Yangi Marg`ilon,UZ,1644551477,40.4272,71.7189,36.3,100,69,2.06
291,Trairi,BR,1644551478,-3.2778,-39.2689,76.2,37,81,2.05
292,Richards Bay,ZA,1644551478,-28.783,32.0377,70.3,22,89,2.24
293,Ibrā’,OM,1644551479,22.6906,58.5334,62.7,0,52,1.17
294,Mahébourg,MU,1644551479,-20.4081,57.7,82.3,40,94,1.03
295,Krasnoarmiys'k,UA,1644551480,48.282,37.1758,33.3,100,99,3.3
296,Krasnosel'kup,RU,1644551480,65.7,82.4667,-9.4,82,86,4.57
297,Uglekamensk,RU,1644551480,43.2172,133.2303,32.9,100,56,1.58
298,San Juan de los Morros,VE,1644551481,9.9115,-67.3538,70.3,65,84,2.28
299,Half Moon Bay,US,1644551481,37.4636,-122.4286,67.0,0,51,3.6
300,Penzance,GB,1644551482,50.1186,-5.5371,43.8,19,63,4.91
301,Wajid,SO,1644551482,3.8093,43.2471,68.9,13,70,8.95
302,Youghal,IE,1644551482,51.95,-7.8506,35.0,82,100,2.23
303,Bonthe,SL,1644551483,7.5264,-12.505,75.9,2,93,1.15
304,Tanout,NE,1644551483,14.9709,8.8879,56.9,0,16,5.43
305,Amurzet,RU,1644551484,47.6967,131.0981,12.0,100,88,2.3
306,Coos Bay,US,1644551484,43.3665,-124.2179,50.0,100,98,6.69
307,Forsytheganj,BY,1644551485,52.6333,29.7333,36.4,100,97,5.51
308,Mar del Plata,AR,1644551485,-38.0023,-57.5575,70.9,0,90,5.66
309,Santa Cruz de la Sierra,BO,1644551479,-17.8,-63.1667,76.5,42,78,1.54
310,Orotukan,RU,1644551486,62.2667,151.7,-17.6,99,88,0.52
311,Arrondissement de Saint-Malo,FR,1644551487,48.5,-1.8333,39.1,6,84,2.58
312,Vyazemskiy,RU,1644551487,47.5378,134.7525,15.5,100,88,1.71
313,Coihueco,CL,1644551488,-36.6167,-71.8333,61.5,42,45,5.14
314,Fojnica,BA,1644551489,43.9625,17.8983,23.9,0,79,1.84
315,San Fernando,PH,1644551490,15.0286,120.6898,86.1,85,50,6.56
316,Burnie,AU,1644551490,-41.0667,145.9167,76.9,0,33,4.29
317,Khandagayty,RU,1644551491,50.7333,92.05,-12.8,71,98,1.23
318,Cockburn Town,TC,1644551235,21.4612,-71.1419,78.0,0,78,8.26
319,Nísia Floresta,BR,1644551492,-6.0911,-35.2086,81.0,12,86,2.07
320,Colares,PT,1644551493,38.7992,-9.4469,59.3,84,70,6.71
321,Nizhniy Odes,RU,1644551493,63.6445,54.856,19.0,100,93,5.21
322,Tornio,FI,1644551494,65.8481,24.1466,12.2,100,82,3.26
323,Muros,ES,1644551494,42.7762,-9.0603,50.8,24,90,3.41
324,Basco,PH,1644551495,20.4487,121.9702,75.2,24,81,7.3
325,Bathsheba,BB,1644551496,13.2167,-59.5167,79.4,75,69,7.72
326,Henderson,US,1644551456,36.0397,-114.9819,67.1,0,27,2.57
327,Fortuna,US,1644551496,40.5982,-124.1573,56.3,0,77,0.0
328,Walla Walla,US,1644551323,46.0646,-118.343,51.9,0,72,3.6
329,Sunrise Manor,US,1644551498,36.2111,-115.0731,69.3,0,24,4.12
330,Palmer,US,1644551498,42.1584,-72.3287,39.1,20,80,0.0
331,Kingsport,US,1644551244,36.5484,-82.5618,45.2,0,67,0.45
332,Kamaishi,JP,1644551499,39.2667,141.8833,36.6,100,61,5.8
333,Chirongui,YT,1644551499,-12.9319,45.1483,78.7,98,79,3.51
334,Tete,MZ,1644551499,-16.1564,33.5867,75.3,20,83,1.54
335,Mocuba,MZ,1644551501,-16.8392,36.9856,70.9,99,96,0.69
336,Tamandaré,BR,1644551501,-8.7597,-35.1047,78.2,100,75,2.68
337,Batemans Bay,AU,1644551502,-35.7167,150.1833,78.2,100,75,4.35
338,Almonte,ES,1644551502,37.2647,-6.5167,53.3,99,62,1.46
339,Praia da Vitória,PT,1644551502,38.7333,-27.0667,56.8,75,94,2.49
340,Mercedes,AR,1644551503,-34.6515,-59.4307,70.5,0,73,3.54
341,Tuatapere,NZ,1644551504,-46.1333,167.6833,63.8,76,74,3.62
342,City of San Pedro,PH,1644551504,14.35,121.0167,87.3,98,60,6.87
343,Ratnagiri,IN,1644551505,16.9833,73.3,82.7,21,38,5.1
344,Montepuez,MZ,1644551505,-13.1256,38.9997,69.3,100,97,0.95
345,Port Blair,IN,1644551224,11.6667,92.75,82.4,40,78,4.63
346,Dunn,US,1644551506,44.95,-91.8835,40.3,100,96,6.17
347,Buraidah,SA,1644551506,26.326,43.975,52.2,0,46,4.29
348,Comodoro Rivadavia,AR,1644551507,-45.8667,-67.5,49.9,0,40,1.03
349,Kenai,US,1644551373,60.5544,-151.2583,27.0,75,79,5.66
350,Hudson Bay,CA,1644551508,52.85,-102.3842,-2.4,96,88,4.88
351,Plátanos,GR,1644551508,37.6667,21.6167,45.1,0,65,1.69
352,Qasigiannguit,GL,1644551509,68.8193,-51.1922,-9.0,100,84,1.21
353,Bonito,BR,1644551509,-21.1211,-56.4819,72.5,0,76,2.05
354,Kindu,CD,1644551509,-2.95,25.95,69.5,98,89,1.1
355,La Peca,PE,1644551510,-5.6111,-78.435,67.0,85,86,1.1
356,Vrangel',RU,1644551510,42.7297,133.0839,31.6,100,73,2.43
357,Klaksvík,FO,1644551511,62.2266,-6.589,38.3,95,70,11.64
358,Coquimbo,CL,1644551511,-29.9533,-71.3436,64.1,100,88,3.09
359,Mahajanga,MG,1644551512,-15.7167,46.3167,75.2,40,94,2.06
360,La Ronge,CA,1644551513,55.1001,-105.2842,-7.4,0,77,3.09
361,Linkou,CN,1644551513,45.3,130.2833,20.6,100,89,1.92
362,Zhigansk,RU,1644551514,66.7697,123.3711,-21.4,100,96,5.86
363,Santa Marta,CO,1644551456,11.2408,-74.199,83.9,75,62,6.26
364,Cordele,US,1644551515,31.9635,-83.7824,50.1,0,70,0.0
365,Mount Isa,AU,1644551445,-20.7333,139.5,100.2,0,17,4.12
366,Rovaniemi,FI,1644551264,66.5,25.7167,17.0,20,92,2.06
367,Caceres,ES,1644551516,39.522,-6.3748,42.8,100,73,1.48
368,Orange Cove,US,1644551516,36.6244,-119.3137,64.1,0,50,2.1
369,Lata,PT,1644551517,40.1629,-8.3327,48.6,92,60,1.74
370,Buala,SB,1644551517,-8.145,159.5921,82.2,82,83,4.93
371,Uvat,RU,1644551518,59.1433,68.8953,-3.7,5,87,3.97
372,Hofn,IS,1644551518,64.2539,-15.2082,28.1,38,59,5.38
373,Baracoa,CU,1644551519,20.3467,-74.4958,74.5,7,87,0.58
374,Zabul Province,AF,1644551520,32.25,67.25,37.9,0,40,1.75
375,Port Hueneme,US,1644551521,34.1478,-119.1951,76.2,0,47,2.57
376,Moerai,PF,1644551521,-22.4333,-151.3333,80.0,100,73,3.14
377,Pozo Colorado,PY,1644551522,-23.4923,-58.7972,74.9,0,34,1.9
378,Laguna,US,1644551523,38.421,-121.4238,65.2,0,72,1.54
379,Nikolayevka,RU,1644551524,53.1257,47.2041,19.5,95,96,2.96
380,Lexington,US,1644551044,37.9887,-84.4777,39.1,0,68,2.06
381,Ulfborg,DK,1644551525,56.2673,8.3217,32.9,49,83,3.97
382,Oakham,GB,1644551525,52.6667,-0.7333,38.9,6,91,1.78
383,Eydhafushi,MV,1644551526,5.1033,73.0708,81.3,85,75,5.02
384,Norton Shores,US,1644551317,43.1689,-86.2639,31.0,100,73,10.8
385,Hetauda,NP,1644551526,27.4284,85.0322,62.9,0,59,1.95
386,Chifeng,CN,1644551527,42.2683,118.9636,25.3,5,32,2.23
387,Wuwei,CN,1644551527,37.9281,102.6414,30.4,13,51,0.86
388,Dera Bugti,PK,1644551528,29.0307,69.151,62.4,0,18,0.43
389,Abu Kamal,SY,1644551528,34.4506,40.9171,47.0,55,71,3.97
390,Honiara,SB,1644551294,-9.4333,159.95,83.1,87,78,3.36
391,Krasnoural'sk,RU,1644551529,58.3638,60.0407,9.6,100,93,5.29
392,Pedernales,DO,1644551530,18.0384,-71.744,75.7,2,68,2.41
393,Tiznit Province,MA,1644551530,29.5833,-9.5,55.4,28,25,1.56
394,Mackenzie,CA,1644551531,55.2999,-123.1698,30.4,0,55,0.0
395,Port Macquarie,AU,1644551531,-31.4333,152.9167,79.9,38,55,6.47
396,Nouadhibou,MR,1644551532,20.931,-17.0347,70.1,85,47,6.2
397,Nampula,MZ,1644551533,-15.1165,39.2666,71.5,75,88,2.06
398,La Asuncion,VE,1644551533,11.0333,-63.8628,76.7,0,88,4.63
399,Solnechnyy,RU,1644551534,50.7214,136.6319,12.9,100,86,2.05
400,Nelson Bay,AU,1644551534,-32.7167,152.15,79.1,82,66,1.79
401,Aleksandrov Gay,RU,1644551535,50.147,48.5704,23.5,91,97,3.52
402,Baker City,US,1644551535,44.7749,-117.8344,42.2,0,93,0.69
403,Portland,US,1644551029,45.5234,-122.6762,49.6,100,90,2.57
404,Salalah,OM,1644551536,17.0151,54.0924,69.4,41,66,1.48
405,Horsham,GB,1644551536,51.064,-0.3272,37.6,0,84,2.06
406,Fukuechō,JP,1644551537,32.6881,128.8419,55.8,20,41,4.12
407,Xichang,CN,1644551537,27.8964,102.2634,53.4,12,52,1.33
408,Egvekinot,RU,1644551538,66.3167,-179.1667,-24.5,30,89,2.3
409,Hauge i Dalane,NO,1644551538,58.3436,6.2812,34.7,17,71,8.61
410,Ilulissat,GL,1644551539,69.2167,-51.1,-5.7,100,84,2.0
411,Pevek,RU,1644551539,69.7008,170.3133,-27.6,100,97,3.61
412,Pacific Grove,US,1644551540,36.6177,-121.9166,65.8,0,56,2.06
413,Salisbury,GB,1644551540,51.0693,-1.7957,37.5,0,84,2.44
414,Lucapa,AO,1644551541,-8.4192,20.7447,63.8,100,98,0.87
415,French Harbor,HN,1644551541,16.35,-86.4333,73.0,37,98,1.65
416,Raja,SS,1644551541,8.4596,25.678,68.9,99,15,3.02
417,Usinsk,RU,1644551542,65.9939,57.5281,22.0,100,76,8.88
418,Caconda,AO,1644551542,-13.7333,15.0667,55.9,85,95,0.3
419,Port Hardy,CA,1644551543,50.6996,-127.4199,43.0,40,87,2.57
420,Kempsey,AU,1644551544,-31.0833,152.8333,80.0,55,73,2.24
421,Ponta Delgada,PT,1644551544,37.7333,-25.6667,59.5,75,71,1.54
422,Qaqortoq,GL,1644551545,60.7167,-46.0333,15.7,94,65,3.0
423,Cassilândia,BR,1644551545,-19.1133,-51.7342,69.9,95,90,0.7
424,Luena,AO,1644551546,-11.7833,19.9167,58.7,96,94,1.86
425,Freeport,US,1644551486,40.6576,-73.5832,45.2,100,50,2.06
426,Beyneu,KZ,1644551546,45.3167,55.2,31.6,100,76,7.3
427,Uíge,AO,1644551547,-7.6087,15.0613,63.7,57,90,1.15
428,Zonguldak,TR,1644551547,41.25,31.8333,27.1,4,74,2.2
429,Kings Mountain,US,1644551548,35.2451,-81.3412,50.2,0,47,0.45
430,Saint-Augustin,CA,1644551548,51.226,-58.6502,28.7,100,97,5.51
431,Korla,CN,1644551549,41.7597,86.1469,30.4,15,41,2.06
432,Aitape,PG,1644551549,-3.1374,142.3475,81.4,91,79,1.36
433,Soyo,AO,1644551550,-6.1349,12.3689,75.7,40,88,3.07
434,Airai,TL,1644551551,-8.9266,125.4092,68.3,100,85,0.64
435,Ekibastuz,KZ,1644551552,51.6667,75.3667,-6.5,50,98,2.97
436,Talas,TR,1644551552,38.6908,35.5538,14.7,40,86,0.51
437,Pimentel,PE,1644551553,-6.8367,-79.9342,72.2,100,75,4.1
438,Padang,ID,1644551553,-0.9492,100.3543,86.1,100,59,0.25
439,Haukipudas,FI,1644551554,65.1765,25.3523,21.3,97,92,3.11
440,Kharp,RU,1644551554,66.8014,65.8081,3.4,100,99,3.03
441,Nemuro,JP,1644551555,43.3236,145.575,27.0,75,69,2.48
442,Lingyuan,CN,1644551556,41.24,119.4011,31.7,25,29,3.71
443,Neiafu,TO,1644551556,-18.65,-173.9833,84.9,20,79,5.14
444,Esim,GH,1644551556,4.8699,-2.2405,77.2,8,94,2.14
445,Along,IN,1644551557,28.1667,94.7667,56.6,94,83,1.49
446,Rawson,AR,1644551557,-43.3002,-65.1023,58.1,0,56,4.43
447,Łobez,PL,1644551558,53.6392,15.6213,36.3,100,96,3.08
448,Kilinochchi,LK,1644551558,9.3961,80.3982,81.1,94,77,3.89
449,Damaturu,NG,1644551559,11.747,11.9608,58.3,6,39,4.11
450,Taku,CN,1644551560,39.0211,117.6469,42.8,100,48,3.02
451,Baykit,RU,1644551560,61.67,96.37,-3.2,5,87,0.4
452,Bodden Town,KY,1644551561,19.2833,-81.25,76.9,20,83,1.03
453,Namatanai,PG,1644551561,-3.6667,152.4333,83.3,78,75,2.98
454,Zafarābād,IN,1644551562,25.7,82.7333,60.8,0,53,4.86
455,Chenghai,CN,1644551562,23.4632,116.768,66.1,75,68,2.0
456,Sungai Penuh,ID,1644551563,-2.0833,101.3833,79.3,98,48,2.09
457,Suluova,TR,1644551564,40.8313,35.6479,22.9,40,93,1.03
458,Xinzhi,CN,1644551564,36.4989,111.7047,42.5,100,40,0.26
459,Jodhpur,IN,1644551565,26.2867,73.03,64.5,0,31,2.86
460,Gallup,US,1644551565,35.5281,-108.7426,40.8,0,34,3.09
461,Kloulklubed,PW,1644551566,7.0419,134.2556,83.2,100,76,7.86
462,Hay River,CA,1644551566,60.8156,-115.7999,-4.0,100,77,3.6
463,Hervey Bay,AU,1644551567,-25.2986,152.8535,89.0,0,56,10.36
464,Sesheke,ZM,1644551567,-17.4759,24.2968,64.2,100,97,1.88
465,Sawākin,SD,1644551568,19.1059,37.3321,69.7,100,73,7.42
466,Tupik,RU,1644551569,54.4253,119.9327,-2.5,100,78,2.15
467,Xining,CN,1644551569,36.6167,101.7667,22.2,68,73,0.99
468,Coahuayana Viejo,MX,1644551570,18.7333,-103.6833,66.4,0,66,1.91
469,Zeya,RU,1644551570,53.75,127.2667,8.1,96,63,1.54
470,Tacna,PE,1644551571,-18.0056,-70.2483,61.7,53,89,1.06
471,Haines Junction,CA,1644551571,60.7522,-137.5108,15.7,15,53,0.51
472,Fallon,US,1644551572,39.4735,-118.7774,46.3,0,53,1.54
473,Prymors'k,UA,1644551572,46.7348,36.3443,40.2,100,88,4.5
474,Gilgit,PK,1644551573,35.9221,74.3087,22.3,6,64,1.59
475,Buchanan,LR,1644551574,5.8808,-10.0467,77.0,25,91,1.51
476,Shache,CN,1644551575,38.4167,77.2406,30.7,100,37,1.86
477,Hays,US,1644551575,30.0502,-98.0336,57.8,0,52,0.89
478,Zhanakorgan,KZ,1644551575,43.9098,67.2495,36.8,85,62,4.25
479,Cayenne,GF,1644551576,4.9333,-52.3333,77.1,100,89,2.24
480,Alice Springs,AU,1644551577,-23.7,133.8833,85.6,0,21,4.63
481,Shirpur,IN,1644551577,21.35,74.8833,69.6,12,26,3.14
482,Guymon,US,1644551456,36.6828,-101.4816,51.8,0,35,7.2
483,Hare Bay,CA,1644551578,48.8499,-54.0148,31.4,95,80,3.82
484,Piaçabuçu,BR,1644551579,-10.4056,-36.4344,78.7,55,75,3.83
485,Nichinan,JP,1644551323,31.6,131.3667,54.6,12,52,2.33
486,Araouane,ML,1644551580,18.9048,-3.5265,59.3,31,24,6.25
487,Yuanping,CN,1644551580,38.7153,112.7575,37.0,100,30,1.34
488,Cabo San Lucas,MX,1644551434,22.8909,-109.9124,69.5,95,73,2.16
489,Salekhard,RU,1644551361,66.53,66.6019,3.8,95,95,5.12
490,Samashki,RU,1644551581,43.2906,45.3014,31.7,58,64,2.06
491,Grand Gaube,MU,1644551582,-20.0064,57.6608,82.4,5,69,1.34
492,Vanimo,PG,1644551582,-2.6741,141.3028,81.4,97,83,0.85
493,Puerto del Rosario,ES,1644551583,28.5004,-13.8627,64.1,25,45,1.54
494,Pineville,US,1644551583,31.3224,-92.4343,55.2,8,66,3.31
495,Poum,NC,1644551584,-20.2333,164.0167,81.4,99,83,9.94
496,Sulangan,PH,1644551584,11.1373,123.7228,79.8,98,81,8.9
497,Quatre Cocos,MU,1644551585,-20.2078,57.7625,82.1,6,76,2.6
498,Lam Luk Ka,TH,1644551585,13.9323,100.7494,95.0,20,71,1.03
499,Morondava,MG,1644551586,-20.2833,44.2833,80.0,42,81,0.9
500,Langelsheim,DE,1644551586,51.9333,10.3333,39.6,100,84,4.74
501,Miandrivazo,MG,1644551587,-19.5167,45.4667,78.8,17,86,0.21
502,Moree,AU,1644551587,-29.4667,149.85,93.2,40,21,5.14
503,Ambilobe,MG,1644551327,-13.2,49.05,74.6,98,96,1.37
504,Khovd,MN,1644551588,48.0056,91.6419,-3.3,97,92,1.16
505,Port-Cartier,CA,1644551589,50.0334,-66.8654,30.4,100,99,1.49
506,Coyhaique,CL,1644551589,-45.5752,-72.0662,49.9,0,46,4.12
507,Shimoda,JP,1644551590,34.6667,138.95,48.6,89,70,4.72
508,Hualmay,PE,1644551590,-11.0964,-77.6139,70.6,100,80,2.83
509,Assiut,EG,1644551591,27.181,31.1837,48.4,3,64,3.13
510,İdil,TR,1644551591,37.3411,41.8895,38.8,92,85,1.92
511,Richmond,US,1644551439,37.5538,-77.4603,49.4,0,67,4.63
512,Broome,US,1644551592,42.2506,-75.833,34.8,95,70,0.89
513,Hobyo,SO,1644551592,5.3505,48.5268,76.3,48,63,8.68
514,West Fargo,US,1644551593,46.875,-96.9004,37.4,100,82,9.77
515,Innisfail,AU,1644551593,-17.5333,146.0333,93.2,44,69,4.12
516,Kerman,IR,1644551594,30.2832,57.0788,47.8,0,22,0.2
517,Sovetskiy,RU,1644551594,61.3614,63.5842,-0.2,88,88,5.44
518,Tamiahua,MX,1644551595,21.2667,-97.45,65.1,93,91,0.81
519,Longhua,CN,1644551595,23.6137,114.1919,67.4,100,79,0.59
520,Iralaya,HN,1644551596,15.0,-83.2333,76.5,3,78,3.53
521,Ardabil,IR,1644551596,38.2498,48.2933,28.7,100,98,2.42
522,Tabou,CI,1644551597,4.423,-7.3528,78.0,28,90,2.01
523,Kidal,ML,1644551597,18.4411,1.4078,63.5,1,12,4.15
524,Kamyshin,RU,1644551597,50.0983,45.416,31.8,70,89,6.13
525,Sfântu Gheorghe,RO,1644551346,45.8667,25.7833,26.7,49,91,0.39
526,Ubari,LY,1644551598,26.5921,12.7805,44.3,0,58,3.12
527,Betioky,MG,1644551599,-23.7167,44.3833,76.8,6,76,3.68
528,Casa Nova,BR,1644551599,-9.4167,-41.1333,77.0,6,62,2.64
529,Kongolo,CD,1644551600,-5.3833,27.0,69.1,100,91,1.23
530,Bereda,ES,1644551600,43.2686,-7.5406,47.6,80,100,1.83
531,Acapulco de Juárez,MX,1644551432,16.8634,-99.8901,74.0,30,72,2.45
532,Campina Verde,BR,1644551601,-19.5356,-49.4864,69.6,100,95,2.1
533,Maungatapere,NZ,1644551601,-35.75,174.2,77.1,62,69,3.49
534,Kabanjahe,ID,1644551602,3.1001,98.4908,70.6,96,62,1.43
535,Bassano,CA,1644551602,50.7834,-112.4685,36.1,0,44,12.97
536,Auburn,US,1644551172,47.3073,-122.2284,48.1,100,90,4.12
537,High Prairie,CA,1644551416,55.4334,-116.4858,31.3,97,57,6.57
538,São João da Barra,BR,1644551603,-21.6403,-41.0511,71.5,100,98,3.03
